{
  "Albertslund Station": {
    "name": "Albertslund Station",
    "lines": [
      "B",
      "Bx"
    ],
    "lat": 55.658108,
    "lon": 12.353142
  },
  "Allerød Station": {
    "name": "Allerød Station",
    "lines": [
      "A"
    ],
    "lat": 55.8706131,
    "lon": 12.3568097
  },
  "Avedøre Station": {
    "name": "Avedøre Station",
    "lines": [
      "A"
    ],
    "lat": 55.6254,
    "lon": 12.454097
  },
  "Bagsværd Station": {
    "name": "Bagsværd Station",
    "lines": [
      "B"
    ],
    "lat": 55.7612225,
    "lon": 12.4541519
  },
  "Ballerup Station": {
    "name": "Ballerup Station",
    "lines": [
      "C",
      "H"
    ],
    "lat": 55.729635,
    "lon": 12.358926
  },
  "Bernstorffsvej Station": {
    "name": "Bernstorffsvej Station",
    "lines": [
      "E"
    ],
    "lat": 55.743001,
    "lon": 12.557527
  },
  "Birkerød Station": {
    "name": "Birkerød Station",
    "lines": [
      "A"
    ],
    "lat": 55.840636,
    "lon": 12.42369
  },
  "Bispebjerg Station": {
    "name": "Bispebjerg Station",
    "lines": [
      "F"
    ],
    "lat": 55.7112395,
    "lon": 12.5370691
  },
  "Brøndby Strand Station": {
    "name": "Brøndby Strand Station",
    "lines": [
      "A"
    ],
    "lat": 55.621179,
    "lon": 12.422535
  },
  "Brøndbyøster Station": {
    "name": "Brøndbyøster Station",
    "lines": [
      "B"
    ],
    "lat": 55.6646254,
    "lon": 12.4391005
  },
  "Buddinge Station": {
    "name": "Buddinge Station",
    "lines": [
      "B",
      "Bx"
    ],
    "lat": 55.747147,
    "lon": 12.494284
  },
  "Carlsberg Station": {
    "name": "Carlsberg Station",
    "lines": [
      "B",
      "Bx",
      "C",
      "H"
    ],
    "lat": 55.663399,
    "lon": 12.536876
  },
  "Charlottenlund Station": {
    "name": "Charlottenlund Station",
    "lines": [
      "C"
    ],
    "lat": 55.7517533,
    "lon": 12.5720023
  },
  "Danshøj Station": {
    "name": "Danshøj Station",
    "lines": [
      "B",
      "Bx",
      "F"
    ],
    "lat": 55.6616585,
    "lon": 12.5167753
  },
  "Dybbølsbro Station": {
    "name": "Dybbølsbro Station",
    "lines": [
      "A",
      "B",
      "Bx",
      "C",
      "E",
      "H"
    ],
    "lat": 55.6645998,
    "lon": 12.5529313
  },
  "Dyssegård Station": {
    "name": "Dyssegård Station",
    "lines": [
      "B",
      "Bx"
    ],
    "lat": 55.7319085,
    "lon": 12.5361953
  },
  "Egedal Station": {
    "name": "Egedal Station",
    "lines": [
      "C"
    ],
    "lat": 55.781717,
    "lon": 12.1837936
  },
  "Emdrup Station": {
    "name": "Emdrup Station",
    "lines": [
      "B",
      "Bx"
    ],
    "lat": 55.719809,
    "lon": 12.541461
  },
  "Farum Station": {
    "name": "Farum Station",
    "lines": [
      "B"
    ],
    "lat": 55.8120599,
    "lon": 12.373299
  },
  "Flintholm Station": {
    "name": "Flintholm Station",
    "lines": [
      "C",
      "F",
      "H"
    ],
    "lat": 55.685457,
    "lon": 12.499963
  },
  "Frederikssund Station": {
    "name": "Frederikssund Station",
    "lines": [
      "C"
    ],
    "lat": 55.835592,
    "lon": 12.062436
  },
  "Friheden Station": {
    "name": "Friheden Station",
    "lines": [
      "A"
    ],
    "lat": 55.62889,
    "lon": 12.482343
  },
  "Fuglebakken Station": {
    "name": "Fuglebakken Station",
    "lines": [
      "F"
    ],
    "lat": 55.695296,
    "lon": 12.527477
  },
  "Gentofte Station": {
    "name": "Gentofte Station",
    "lines": [
      "E"
    ],
    "lat": 55.7534336,
    "lon": 12.5412786
  },
  "Glostrup Station": {
    "name": "Glostrup Station",
    "lines": [
      "B",
      "Bx"
    ],
    "lat": 55.663282,
    "lon": 12.398726
  },
  "Greve Station": {
    "name": "Greve Station",
    "lines": [
      "A",
      "E"
    ],
    "lat": 55.5815632,
    "lon": 12.295749
  },
  "Grøndal Station": {
    "name": "Grøndal Station",
    "lines": [
      "F"
    ],
    "lat": 55.690684,
    "lon": 12.515871
  },
  "Hareskov Station": {
    "name": "Hareskov Station",
    "lines": [
      "B"
    ],
    "lat": 55.7660192,
    "lon": 12.4059077
  },
  "Hellerup Station": {
    "name": "Hellerup Station",
    "lines": [
      "A",
      "C",
      "E",
      "F"
    ],
    "lat": 55.7311155,
    "lon": 12.5680862
  },
  "Herlev Station": {
    "name": "Herlev Station",
    "lines": [
      "C",
      "H"
    ],
    "lat": 55.718902,
    "lon": 12.443812
  },
  "Hillerød Station": {
    "name": "Hillerød Station",
    "lines": [
      "A"
    ],
    "lat": 55.927123,
    "lon": 12.3105534
  },
  "Holte Station": {
    "name": "Holte Station",
    "lines": [
      "A",
      "E"
    ],
    "lat": 55.8076658,
    "lon": 12.4687732
  },
  "Hundige Station": {
    "name": "Hundige Station",
    "lines": [
      "A",
      "E"
    ],
    "lat": 55.5977436,
    "lon": 12.3323151
  },
  "Husum Station": {
    "name": "Husum Station",
    "lines": [
      "C",
      "H"
    ],
    "lat": 55.7071732,
    "lon": 12.4915226
  },
  "Hvidovre Station": {
    "name": "Hvidovre Station",
    "lines": [
      "B"
    ],
    "lat": 55.664521,
    "lon": 12.472896
  },
  "Høje Taastrup Station": {
    "name": "Høje Taastrup Station",
    "lines": [
      "B",
      "Bx"
    ],
    "lat": 55.6483771,
    "lon": 12.269294
  },
  "Ishøj Station": {
    "name": "Ishøj Station",
    "lines": [
      "A",
      "E"
    ],
    "lat": 55.613972,
    "lon": 12.34637
  },
  "Islev Station": {
    "name": "Islev Station",
    "lines": [
      "H"
    ],
    "lat": 55.699441,
    "lon": 12.469165
  },
  "Jersie Station": {
    "name": "Jersie Station",
    "lines": [
      "E"
    ],
    "lat": 55.5218017,
    "lon": 12.2113011
  },
  "Jyllingevej Station": {
    "name": "Jyllingevej Station",
    "lines": [
      "H"
    ],
    "lat": 55.690576,
    "lon": 12.47742
  },
  "Jægersborg Station": {
    "name": "Jægersborg Station",
    "lines": [
      "E"
    ],
    "lat": 55.761621,
    "lon": 12.521561
  },
  "Karlslunde Station": {
    "name": "Karlslunde Station",
    "lines": [
      "A",
      "E"
    ],
    "lat": 55.566682,
    "lon": 12.249315
  },
  "KB Hallen Station": {
    "name": "KB Hallen Station",
    "lines": [
      "F"
    ],
    "lat": 55.677879,
    "lon": 12.492953
  },
  "Kildebakke Station": {
    "name": "Kildebakke Station",
    "lines": [
      "B",
      "Bx"
    ],
    "lat": 55.744263,
    "lon": 12.5054453
  },
  "Kildedal Station": {
    "name": "Kildedal Station",
    "lines": [
      "C"
    ],
    "lat": 55.768616,
    "lon": 12.19831
  },
  "Klampenborg Station": {
    "name": "Klampenborg Station",
    "lines": [
      "C"
    ],
    "lat": 55.777515,
    "lon": 12.587365
  },
  "København H": {
    "name": "København H",
    "lines": [
      "A",
      "B",
      "Bx",
      "C",
      "E",
      "H"
    ],
    "lat": 55.673535,
    "lon": 12.564968
  },
  "Køge Nord Station": {
    "name": "Køge Nord Station",
    "lines": [
      "E"
    ],
    "lat": 55.4990911,
    "lon": 12.1733631
  },
  "Langgade Station": {
    "name": "Langgade Station",
    "lines": [
      "H"
    ],
    "lat": 55.6616585,
    "lon": 12.5167753
  },
  "Lyngby Station": {
    "name": "Lyngby Station",
    "lines": [
      "A",
      "E"
    ],
    "lat": 55.76869,
    "lon": 12.5027977
  },
  "Malmparken Station": {
    "name": "Malmparken Station",
    "lines": [
      "C",
      "H"
    ],
    "lat": 55.725507,
    "lon": 12.385161
  },
  "Måløv Station": {
    "name": "Måløv Station",
    "lines": [
      "C"
    ],
    "lat": 55.747451,
    "lon": 12.318409
  },
  "Nordhavn Station": {
    "name": "Nordhavn Station",
    "lines": [
      "A",
      "B",
      "Bx",
      "C",
      "E"
    ],
    "lat": 55.704639,
    "lon": 12.590981
  },
  "Ny Ellebjerg Station": {
    "name": "Ny Ellebjerg Station",
    "lines": [
      "A",
      "E",
      "F"
    ],
    "lat": 55.6616585,
    "lon": 12.5167753
  },
  "Nørrebro Station": {
    "name": "Nørrebro Station",
    "lines": [
      "F"
    ],
    "lat": 55.700712,
    "lon": 12.5385325
  },
  "Nørreport Station": {
    "name": "Nørreport Station",
    "lines": [
      "A",
      "B",
      "Bx",
      "C",
      "E",
      "H"
    ],
    "lat": 55.682844,
    "lon": 12.570983
  },
  "Ordrup Station": {
    "name": "Ordrup Station",
    "lines": [
      "C"
    ],
    "lat": 55.7628929,
    "lon": 12.582809
  },
  "Peter Bangs Vej Station": {
    "name": "Peter Bangs Vej Station",
    "lines": [
      "H"
    ],
    "lat": 55.681845,
    "lon": 12.5179439
  },
  "Ryparken Station": {
    "name": "Ryparken Station",
    "lines": [
      "B",
      "Bx",
      "F"
    ],
    "lat": 55.7153125,
    "lon": 12.5591283
  },
  "Rødovre Station": {
    "name": "Rødovre Station",
    "lines": [
      "B"
    ],
    "lat": 55.6654924,
    "lon": 12.4572267
  },
  "Sjælør Station": {
    "name": "Sjælør Station",
    "lines": [
      "A",
      "E"
    ],
    "lat": 55.6616585,
    "lon": 12.5167753
  },
  "Skovbrynet Station": {
    "name": "Skovbrynet Station",
    "lines": [
      "B"
    ],
    "lat": 55.764648,
    "lon": 12.433047
  },
  "Skovlunde Station": {
    "name": "Skovlunde Station",
    "lines": [
      "C",
      "H"
    ],
    "lat": 55.722742,
    "lon": 12.403512
  },
  "Solrød Strand Station": {
    "name": "Solrød Strand Station",
    "lines": [
      "A",
      "E"
    ],
    "lat": 55.5328097,
    "lon": 12.2168716
  },
  "Sorgenfri Station": {
    "name": "Sorgenfri Station",
    "lines": [
      "E"
    ],
    "lat": 55.781235,
    "lon": 12.483457
  },
  "Stengården Station": {
    "name": "Stengården Station",
    "lines": [
      "B"
    ],
    "lat": 55.756183,
    "lon": 12.47014
  },
  "Stenløse Station": {
    "name": "Stenløse Station",
    "lines": [
      "C"
    ],
    "lat": 55.766441,
    "lon": 12.190635
  },
  "Svanemøllen Station": {
    "name": "Svanemøllen Station",
    "lines": [
      "A",
      "B",
      "Bx",
      "C",
      "E"
    ],
    "lat": 55.715537,
    "lon": 12.57806
  },
  "Sydhavn Station": {
    "name": "Sydhavn Station",
    "lines": [
      "A",
      "E"
    ],
    "lat": 55.6547907,
    "lon": 12.5372263
  },
  "Valby Station": {
    "name": "Valby Station",
    "lines": [
      "B",
      "Bx",
      "C",
      "H"
    ],
    "lat": 55.66404,
    "lon": 12.51437
  },
  "Vallensbæk Station": {
    "name": "Vallensbæk Station",
    "lines": [
      "A"
    ],
    "lat": 55.6225222,
    "lon": 12.3881703
  },
  "Vangede Station": {
    "name": "Vangede Station",
    "lines": [
      "B",
      "Bx"
    ],
    "lat": 55.739449,
    "lon": 12.5235749
  },
  "Vanløse Station": {
    "name": "Vanløse Station",
    "lines": [
      "C",
      "H"
    ],
    "lat": 55.6873303,
    "lon": 12.4902537
  },
  "Veksø Station": {
    "name": "Veksø Station",
    "lines": [
      "C"
    ],
    "lat": 55.750108,
    "lon": 12.238437
  },
  "Vesterport Station": {
    "name": "Vesterport Station",
    "lines": [
      "A",
      "B",
      "Bx",
      "C",
      "E",
      "H"
    ],
    "lat": 55.6752617,
    "lon": 12.5616659
  },
  "Vigerslev Allé Station": {
    "name": "Vigerslev Allé Station",
    "lines": [
      "F"
    ],
    "lat": 55.6616585,
    "lon": 12.5167753
  },
  "Vinge Station": {
    "name": "Vinge Station",
    "lines": [
      "C"
    ],
    "lat": 55.81042111629197,
    "lon": 12.115174036977587
  },
  "Virum Station": {
    "name": "Virum Station",
    "lines": [
      "E"
    ],
    "lat": 55.7957035,
    "lon": 12.4733973
  },
  "Værløse Station": {
    "name": "Værløse Station",
    "lines": [
      "B"
    ],
    "lat": 55.782377,
    "lon": 12.373646
  },
  "Ølby Station": {
    "name": "Ølby Station",
    "lines": [
      "E"
    ],
    "lat": 55.479756,
    "lon": 12.175412
  },
  "Ølstykke Station": {
    "name": "Ølstykke Station",
    "lines": [
      "C"
    ],
    "lat": 55.793643,
    "lon": 12.147581
  },
  "Østerport Station": {
    "name": "Østerport Station",
    "lines": [
      "A",
      "B",
      "Bx",
      "C",
      "E",
      "H"
    ],
    "lat": 55.692512,
    "lon": 12.587209
  },
  "Ålholm Station": {
    "name": "Ålholm Station",
    "lines": [
      "F"
    ],
    "lat": 55.672309,
    "lon": 12.493092
  },
  "Åmarken Station": {
    "name": "Åmarken Station",
    "lines": [
      "A"
    ],
    "lat": 55.640121,
    "lon": 12.499651
  }
}